{"_id":{"$oid":"580a7453d55632e672deecd5"},"name":"Robert Kearney, MD","addresses":[{"street1":"4520 Executive Dr","street2":"Ste 150","street3":"","city":"San Diego","state":"CA","country":"US","coordinates":{"longitude":-117.210299,"latitude":32.8764085},"_id":{"$oid":"580a7b2f1b17a03796f3c768"}}],"phone":"+18586779352","website":"https://www.yelp.com/biz/robert-kearney-md-san-diego?adjust_creative=ws8vr28tdg6FPV5bVAOu_g\u0026utm_campaign=yelp_api_v3\u0026utm_medium=api_v3_business_search\u0026utm_source=ws8vr28tdg6FPV5bVAOu_g","image_url":"https://s3-media4.fl.yelpcdn.com/bphoto/BrqEHo948MH_0Vud3g2AOg/o.jpg","rating":5,"review_count":61}
{"_id":{"$oid":"580a7453d55632e672deecd6"},"name":"Mofid M Mark, MD","addresses":[{"street1":"4150 Regents Park Row","street2":"Ste 300","street3":"","city":"La Jolla","state":"CA","country":"US","coordinates":{"longitude":-117.2176194,"latitude":32.8732257},"_id":{"$oid":"580a7b311b17a03796f3c769"}}],"phone":"+18589099000","website":"https://www.yelp.com/biz/mofid-m-mark-md-la-jolla?adjust_creative=ws8vr28tdg6FPV5bVAOu_g\u0026utm_campaign=yelp_api_v3\u0026utm_medium=api_v3_business_search\u0026utm_source=ws8vr28tdg6FPV5bVAOu_g","image_url":"https://s3-media1.fl.yelpcdn.com/bphoto/ZA7NRLKnhKGx4Zmp3IllFg/o.jpg","rating":5,"review_count":23}
{"_id":{"$oid":"580a7453d55632e672deecd7"},"name":"Pacific Lipo","addresses":[{"street1":"8899 University Center Ln","street2":"Ste 250","street3":"","city":"San Diego","state":"CA","country":"US","coordinates":{"longitude":-117.227591,"latitude":32.869844},"_id":{"$oid":"580a7b371b17a03796f3c76a"}}],"phone":"+18584278899","website":"https://www.yelp.com/biz/pacific-lipo-san-diego?adjust_creative=ws8vr28tdg6FPV5bVAOu_g\u0026utm_campaign=yelp_api_v3\u0026utm_medium=api_v3_business_search\u0026utm_source=ws8vr28tdg6FPV5bVAOu_g","image_url":"https://s3-media2.fl.yelpcdn.com/bphoto/xxviQmZmpaa0ScHrxuktGA/o.jpg","rating":5,"review_count":103}
{"_id":{"$oid":"580a7453d55632e672deecd8"},"name":"Coastal Plastic Surgeons","addresses":[{"street1":"12264 El Camino Real","street2":"Ste 101","street3":"","city":"San Diego","state":"CA","country":"US","coordinates":{"longitude":-117.24081420898,"latitude":32.939563751221},"_id":{"$oid":"580a7b371b17a03796f3c76a"}}],"phone":"+18588470800","website":"https://www.yelp.com/biz/coastal-plastic-surgeons-san-diego?adjust_creative=ws8vr28tdg6FPV5bVAOu_g\u0026utm_campaign=yelp_api_v3\u0026utm_medium=api_v3_business_search\u0026utm_source=ws8vr28tdg6FPV5bVAOu_g","image_url":"https://s3-media2.fl.yelpcdn.com/bphoto/LUUyn80cC9MYGkZQ7I0E7g/o.jpg","rating":4.5,"review_count":62}
{"_id":{"$oid":"580a7453d55632e672deecd9"},"name":"Sassan Alavi, MD","addresses":[{"street1":"3023 Bunker Hill Street","street2":"Ste 204","street3":"","city":"San Diego","state":"CA","country":"US","coordinates":{"longitude":-117.21497,"latitude":32.80322},"_id":{"$oid":"580a7b371b17a03796f3c76a"}}],"phone":"+18584830690","website":"https://www.yelp.com/biz/sassan-alavi-md-san-diego-2?adjust_creative=ws8vr28tdg6FPV5bVAOu_g\u0026utm_campaign=yelp_api_v3\u0026utm_medium=api_v3_business_search\u0026utm_source=ws8vr28tdg6FPV5bVAOu_g","image_url":"https://s3-media4.fl.yelpcdn.com/bphoto/hgv9Gsi9QpzJDGUnO54LzA/o.jpg","rating":4.5,"review_count":70}
{"_id":{"$oid":"580a7453d55632e672deecda"},"name":"La Jolla Cosmetic Surgery Centre","addresses":[{"street1":"9850 Genesee Ave","street2":"Ste 130","street3":"","city":"La Jolla","state":"CA","country":"US","coordinates":{"longitude":-117.222391,"latitude":32.884633},"_id":{"$oid":"580a7b371b17a03796f3c76a"}}],"phone":"+18584521981","website":"https://www.yelp.com/biz/la-jolla-cosmetic-surgery-centre-la-jolla?adjust_creative=ws8vr28tdg6FPV5bVAOu_g\u0026utm_campaign=yelp_api_v3\u0026utm_medium=api_v3_business_search\u0026utm_source=ws8vr28tdg6FPV5bVAOu_g","image_url":"https://s3-media4.fl.yelpcdn.com/bphoto/qdYNKRfbG3AchTgGmvZV1w/o.jpg","rating":4.5,"review_count":84}
{"_id":{"$oid":"580a7453d55632e672deecdb"},"name":"John D Smoot, MD","addresses":[{"street1":"La Jolla Cosmetic Surgery Centre","street2":"9850 Genesee Ave, Ste 130","street3":"","city":"La Jolla","state":"CA","country":"US","coordinates":{"longitude":-117.2263985,"latitude":32.8829239},"_id":{"$oid":"580a7b371b17a03796f3c76a"}}],"phone":"+18584521981","website":"https://www.yelp.com/biz/john-d-smoot-md-la-jolla?adjust_creative=ws8vr28tdg6FPV5bVAOu_g\u0026utm_campaign=yelp_api_v3\u0026utm_medium=api_v3_business_search\u0026utm_source=ws8vr28tdg6FPV5bVAOu_g","image_url":"https://s3-media3.fl.yelpcdn.com/bphoto/YTVgL9_C2L9npV7ESgy3xQ/o.jpg","rating":4,"review_count":25}
{"_id":{"$oid":"580a7453d55632e672deecdc"},"name":"Facesplus","addresses":[{"street1":"4510 Executive Dr","street2":"Ste 200","street3":"","city":"San Diego","state":"CA","country":"US","coordinates":{"longitude":-117.21076,"latitude":32.87616},"_id":{"$oid":"580a7b371b17a03796f3c76a"}}],"phone":"+18584537224","website":"https://www.yelp.com/biz/facesplus-san-diego?adjust_creative=ws8vr28tdg6FPV5bVAOu_g\u0026utm_campaign=yelp_api_v3\u0026utm_medium=api_v3_business_search\u0026utm_source=ws8vr28tdg6FPV5bVAOu_g","image_url":"https://s3-media2.fl.yelpcdn.com/bphoto/_o42y879cLOwJ_YhhN7e1w/o.jpg","rating":5,"review_count":36}
{"_id":{"$oid":"580a7453d55632e672deecdd"},"name":"Carmel Valley Facial Plastic Surgery","addresses":[{"street1":"11943 El Camino Real","street2":"Ste 100","street3":"","city":"San Diego","state":"CA","country":"US","coordinates":{"longitude":-117.2374124527,"latitude":32.935929675031},"_id":{"$oid":"580a7b371b17a03796f3c76a"}}],"phone":"+18582593223","website":"https://www.yelp.com/biz/carmel-valley-facial-plastic-surgery-san-diego-4?adjust_creative=ws8vr28tdg6FPV5bVAOu_g\u0026utm_campaign=yelp_api_v3\u0026utm_medium=api_v3_business_search\u0026utm_source=ws8vr28tdg6FPV5bVAOu_g","image_url":"https://s3-media1.fl.yelpcdn.com/bphoto/bg2KjDrnyh1kMrJSjDcYqQ/o.jpg","rating":4.5,"review_count":65}
{"_id":{"$oid":"580a7453d55632e672deecde"},"name":"Diana Breister Ghosh, MD","addresses":[{"street1":"2275 Rio Bonito Way","street2":"Ste 220","street3":"","city":"San Diego","state":"CA","country":"US","coordinates":{"longitude":-117.13732147217,"latitude":32.777328491211},"_id":{"$oid":"580a7b371b17a03796f3c76a"}}],"phone":"+16198221667","website":"https://www.yelp.com/biz/diana-breister-ghosh-md-san-diego-2?adjust_creative=ws8vr28tdg6FPV5bVAOu_g\u0026utm_campaign=yelp_api_v3\u0026utm_medium=api_v3_business_search\u0026utm_source=ws8vr28tdg6FPV5bVAOu_g","image_url":"https://s3-media4.fl.yelpcdn.com/bphoto/6H3BYXouN2O8IFF5lnV-eA/o.jpg","rating":5,"review_count":12}
{"_id":{"$oid":"580a7453d55632e672deecdf"},"name":"Shumway Cosmetic Surgery","addresses":[{"street1":"9834 Genesee Ave Ste 225","street2":"","street3":"","city":"La Jolla","state":"CA","country":"US","coordinates":{"longitude":-117.22584,"latitude":32.8840701},"_id":{"$oid":"580a7b371b17a03796f3c76a"}}],"phone":"+18585872640","website":"https://www.yelp.com/biz/shumway-cosmetic-surgery-la-jolla?adjust_creative=ws8vr28tdg6FPV5bVAOu_g\u0026utm_campaign=yelp_api_v3\u0026utm_medium=api_v3_business_search\u0026utm_source=ws8vr28tdg6FPV5bVAOu_g","image_url":"https://s3-media4.fl.yelpcdn.com/bphoto/QEewEHmzbjDSGIAo7wH6Dg/o.jpg","rating":4.5,"review_count":31}
{"_id":{"$oid":"580a7453d55632e672deece0"},"name":"Daniel Brown MD","addresses":[{"street1":"9850 Genesee Ave","street2":"Ste 640","street3":"","city":"La Jolla","state":"CA","country":"US","coordinates":{"longitude":-117.226436,"latitude":32.882966},"_id":{"$oid":"580a7b371b17a03796f3c76a"}}],"phone":"+16194611500","website":"https://www.yelp.com/biz/daniel-brown-md-la-jolla?adjust_creative=ws8vr28tdg6FPV5bVAOu_g\u0026utm_campaign=yelp_api_v3\u0026utm_medium=api_v3_business_search\u0026utm_source=ws8vr28tdg6FPV5bVAOu_g","image_url":"https://s3-media2.fl.yelpcdn.com/bphoto/u2Zk47HDsFzTRBmIwPWl-g/o.jpg","rating":5,"review_count":30}
{"_id":{"$oid":"580a7453d55632e672deece1"},"name":"Avalon Lipo and Aesthetics","addresses":[{"street1":"2445 5th Ave","street2":"Ste 240B","street3":"","city":"San Diego","state":"CA","country":"US","coordinates":{"longitude":-117.1601192,"latitude":32.7310832},"_id":{"$oid":"580a7b371b17a03796f3c76a"}}],"phone":"+18009904214","website":"https://www.yelp.com/biz/avalon-lipo-and-aesthetics-san-diego?adjust_creative=ws8vr28tdg6FPV5bVAOu_g\u0026utm_campaign=yelp_api_v3\u0026utm_medium=api_v3_business_search\u0026utm_source=ws8vr28tdg6FPV5bVAOu_g","image_url":"https://s3-media2.fl.yelpcdn.com/bphoto/ZR228dPqUjG8-R_NUm8hNg/o.jpg","rating":5,"review_count":41}
{"_id":{"$oid":"580a7453d55632e672deece2"},"name":"Marin Aesthetics","addresses":[{"street1":"9834 Genesee Ave","street2":"","street3":"","city":"La Jolla","state":"CA","country":"US","coordinates":{"longitude":-117.22584,"latitude":32.8840701},"_id":{"$oid":"580a7b371b17a03796f3c76a"}}],"phone":"+18586389800","website":"https://www.yelp.com/biz/marin-aesthetics-la-jolla?adjust_creative=ws8vr28tdg6FPV5bVAOu_g\u0026utm_campaign=yelp_api_v3\u0026utm_medium=api_v3_business_search\u0026utm_source=ws8vr28tdg6FPV5bVAOu_g","image_url":"https://s3-media1.fl.yelpcdn.com/bphoto/Bv52vxUjQsZ86ezPwJK_Lw/o.jpg","rating":5,"review_count":30}
{"_id":{"$oid":"580a7453d55632e672deece3"},"name":"Umansky Medical Center For Plastic Surgery","addresses":[{"street1":"4150 Regents Park Row","street2":"Ste 260","street3":"","city":"La Jolla","state":"CA","country":"US","coordinates":{"longitude":-117.2176,"latitude":32.87305},"_id":{"$oid":"580a7b371b17a03796f3c76a"}}],"phone":"+18585509697","website":"https://www.yelp.com/biz/umansky-medical-center-for-plastic-surgery-la-jolla?adjust_creative=ws8vr28tdg6FPV5bVAOu_g\u0026utm_campaign=yelp_api_v3\u0026utm_medium=api_v3_business_search\u0026utm_source=ws8vr28tdg6FPV5bVAOu_g","image_url":"https://s3-media1.fl.yelpcdn.com/bphoto/K0jtWenlFG3m3AI1iCtWSA/o.jpg","rating":5,"review_count":26}
{"_id":{"$oid":"580a7453d55632e672deece4"},"name":"Steve Laverson, MD - Feel Beautiful Plastic Surgery","addresses":[{"street1":"11199 Sorrento Valley Rd","street2":"Ste 202","street3":"","city":"San Diego","state":"CA","country":"US","coordinates":{"longitude":-117.2267557,"latitude":32.9062261},"_id":{"$oid":"580a7b371b17a03796f3c76a"}}],"phone":"+18582954001","website":"https://www.yelp.com/biz/steve-laverson-md-feel-beautiful-plastic-surgery-san-diego?adjust_creative=ws8vr28tdg6FPV5bVAOu_g\u0026utm_campaign=yelp_api_v3\u0026utm_medium=api_v3_business_search\u0026utm_source=ws8vr28tdg6FPV5bVAOu_g","image_url":"https://s3-media1.fl.yelpcdn.com/bphoto/7couboBXuNsdNM9xZNqZhg/o.jpg","rating":4.5,"review_count":48}
{"_id":{"$oid":"580a7453d55632e672deece5"},"name":"Jeffrey A Umansky, MD, FACS","addresses":[{"street1":"4150 Regents Park Row","street2":"Ste260","street3":"","city":"La Jolla","state":"CA","country":"US","coordinates":{"longitude":-117.2176,"latitude":32.87305},"_id":{"$oid":"580a7b371b17a03796f3c76a"}}],"phone":"+18585509697","website":"https://www.yelp.com/biz/jeffrey-a-umansky-md-facs-la-jolla?adjust_creative=ws8vr28tdg6FPV5bVAOu_g\u0026utm_campaign=yelp_api_v3\u0026utm_medium=api_v3_business_search\u0026utm_source=ws8vr28tdg6FPV5bVAOu_g","image_url":"https://s3-media1.fl.yelpcdn.com/bphoto/dFESb27cxioMzu-9YPXvcA/o.jpg","rating":5,"review_count":42}
{"_id":{"$oid":"580a7453d55632e672deece6"},"name":"Ronald J Edelson, MD","addresses":[{"street1":"9339 Genesee Ave","street2":"Ste Plz 39","street3":"","city":"San Diego","state":"CA","country":"US","coordinates":{"longitude":-117.213267,"latitude":32.876235},"_id":{"$oid":"580a7b371b17a03796f3c76a"}}],"phone":"+18584529900","website":"https://www.yelp.com/biz/ronald-j-edelson-md-san-diego?adjust_creative=ws8vr28tdg6FPV5bVAOu_g\u0026utm_campaign=yelp_api_v3\u0026utm_medium=api_v3_business_search\u0026utm_source=ws8vr28tdg6FPV5bVAOu_g","image_url":"https://s3-media4.fl.yelpcdn.com/bphoto/o93iiI1kCzrRJJFtGcRNhQ/o.jpg","rating":5,"review_count":36}
{"_id":{"$oid":"580a7453d55632e672deece7"},"name":"The La Jolla Institute Of Plastic Surgery","addresses":[{"street1":"8929 University Center Ln","street2":"Ste 102","street3":null,"city":"San Diego","state":"CA","country":"US","coordinates":{"longitude":-117.22652,"latitude":32.86984},"_id":{"$oid":"580a7b371b17a03796f3c76a"}}],"phone":"+18584503377","website":"https://www.yelp.com/biz/the-la-jolla-institute-of-plastic-surgery-san-diego?adjust_creative=ws8vr28tdg6FPV5bVAOu_g\u0026utm_campaign=yelp_api_v3\u0026utm_medium=api_v3_business_search\u0026utm_source=ws8vr28tdg6FPV5bVAOu_g","image_url":"https://s3-media2.fl.yelpcdn.com/bphoto/Q_H_4gd9v14TOEAGZcAXiA/o.jpg","rating":4.5,"review_count":29}
{"_id":{"$oid":"580a7453d55632e672deece8"},"name":"Gupta Plastic Surgery","addresses":[{"street1":"10672 Wexford St","street2":"Ste 275","street3":null,"city":"San Diego","state":"CA","country":"US","coordinates":{"longitude":-117.0987854,"latitude":32.9390411},"_id":{"$oid":"580a7b371b17a03796f3c76a"}}],"phone":"+18586216000","website":"https://www.yelp.com/biz/gupta-plastic-surgery-san-diego?adjust_creative=ws8vr28tdg6FPV5bVAOu_g\u0026utm_campaign=yelp_api_v3\u0026utm_medium=api_v3_business_search\u0026utm_source=ws8vr28tdg6FPV5bVAOu_g","image_url":"https://s3-media1.fl.yelpcdn.com/bphoto/Q3KQEIdpxt7cVMrggSrLDQ/o.jpg","rating":5,"review_count":31}
{"_id":{"$oid":"580a7453d55632e672deece9"},"name":"Belli Belli Salon \u0026 Boutique","addresses":[{"street1":"3461 Ingraham St","street2":"","street3":"","city":"San Diego","state":"CA","country":"US","coordinates":{"latitude":32.782569885254,"longitude":-117.23648834228,"_id":{"$oid":"580a7d4fc27c2f1c3421e777"}},"_id":{"$oid":"580a7b371b17a03796f3c76a"},"zip":""}],"phone":"+18582702288","website":"https://www.yelp.com/biz/belli-belli-salon-and-boutique-san-diego?adjust_creative=ws8vr28tdg6FPV5bVAOu_g\u0026utm_campaign=yelp_api_v3\u0026utm_medium=api_v3_business_search\u0026utm_source=ws8vr28tdg6FPV5bVAOu_g","image_url":"https://s3-media2.fl.yelpcdn.com/bphoto/ER5aGAcmXy8JHo1nhZJJ_g/o.jpg","rating":5,"review_count":515,"enabled":true}
{"_id":{"$oid":"580a7453d55632e672deecea"},"name":"Salon 101","addresses":[{"street1":"Price Center","street2":"","street3":"","city":"San Diego","state":"CA","country":"US","coordinates":{"longitude":-117.23700005561,"latitude":32.879999952787},"_id":{"$oid":"580a7b371b17a03796f3c76a"}}],"phone":"+18584040834","website":"https://www.yelp.com/biz/salon-101-san-diego-2?adjust_creative=ws8vr28tdg6FPV5bVAOu_g\u0026utm_campaign=yelp_api_v3\u0026utm_medium=api_v3_business_search\u0026utm_source=ws8vr28tdg6FPV5bVAOu_g","image_url":"https://s3-media3.fl.yelpcdn.com/bphoto/26S857yh9YcFhu53gxbUrw/o.jpg","rating":4.5,"review_count":62}
{"_id":{"$oid":"580a7453d55632e672deeceb"},"name":"KODA Salon","addresses":[{"street1":"7843 Girard Ave","street2":"Suite C","street3":"","city":"La Jolla","state":"CA","country":"US","coordinates":{"longitude":-117.27386,"latitude":32.84597},"_id":{"$oid":"580a7b371b17a03796f3c76a"}}],"phone":"+18584595632","website":"https://www.yelp.com/biz/koda-salon-la-jolla?adjust_creative=ws8vr28tdg6FPV5bVAOu_g\u0026utm_campaign=yelp_api_v3\u0026utm_medium=api_v3_business_search\u0026utm_source=ws8vr28tdg6FPV5bVAOu_g","image_url":"https://s3-media4.fl.yelpcdn.com/bphoto/Ei3BQGdms6Zqp58iMMAR4A/o.jpg","rating":5,"review_count":86}
{"_id":{"$oid":"580a7453d55632e672deecec"},"name":"The Parlor, a Boutique Salon","addresses":[{"street1":"902 Turquoise St","street2":"Unit 1","street3":"","city":"San Diego","state":"CA","country":"US","coordinates":{"longitude":-117.25838756152,"latitude":32.808905252421},"_id":{"$oid":"580a7b371b17a03796f3c76a"}}],"phone":"+18584888770","website":"https://www.yelp.com/biz/the-parlor-a-boutique-salon-san-diego-2?adjust_creative=ws8vr28tdg6FPV5bVAOu_g\u0026utm_campaign=yelp_api_v3\u0026utm_medium=api_v3_business_search\u0026utm_source=ws8vr28tdg6FPV5bVAOu_g","image_url":"https://s3-media1.fl.yelpcdn.com/bphoto/3elqpNHRqhDPYuidvieyPg/o.jpg","rating":5,"review_count":74}
{"_id":{"$oid":"580a7453d55632e672deeced"},"name":"A Salon Paul Mitchell","addresses":[{"street1":"5150 Murphy Canyon Rd","street2":"Ste 112","street3":"","city":"San Diego","state":"CA","country":"US","coordinates":{"longitude":-117.12104034424,"latitude":32.831748962402},"_id":{"$oid":"580a7b371b17a03796f3c76a"}}],"phone":"+18582788184","website":"https://www.yelp.com/biz/a-salon-paul-mitchell-san-diego-4?adjust_creative=ws8vr28tdg6FPV5bVAOu_g\u0026utm_campaign=yelp_api_v3\u0026utm_medium=api_v3_business_search\u0026utm_source=ws8vr28tdg6FPV5bVAOu_g","image_url":"https://s3-media1.fl.yelpcdn.com/bphoto/FEp_ioiFwNSL6r-UV2_bRg/o.jpg","rating":4.5,"review_count":291}
{"_id":{"$oid":"580a7453d55632e672deecee"},"name":"Ashen Salon","addresses":[{"street1":"6903 La Jolla Blvd","street2":"","street3":"","city":"La Jolla","state":"CA","country":"US","coordinates":{"longitude":-117.27635,"latitude":32.83204},"_id":{"$oid":"580a7b371b17a03796f3c76a"}}],"phone":"+18584593216","website":"https://www.yelp.com/biz/ashen-salon-la-jolla?adjust_creative=ws8vr28tdg6FPV5bVAOu_g\u0026utm_campaign=yelp_api_v3\u0026utm_medium=api_v3_business_search\u0026utm_source=ws8vr28tdg6FPV5bVAOu_g","image_url":"https://s3-media4.fl.yelpcdn.com/bphoto/ujGOwAuJAfx6-vBRQNaP5w/o.jpg","rating":5,"review_count":81}
{"_id":{"$oid":"580a7453d55632e672deecef"},"name":"Salon Elle","addresses":[{"street1":"7552 Fay Ave","street2":"","street3":"","city":"La Jolla","state":"CA","country":"US","coordinates":{"longitude":-117.2741903,"latitude":32.8411319},"_id":{"$oid":"580a7b371b17a03796f3c76a"}}],"phone":"+18584567552","website":"https://www.yelp.com/biz/salon-elle-la-jolla?adjust_creative=ws8vr28tdg6FPV5bVAOu_g\u0026utm_campaign=yelp_api_v3\u0026utm_medium=api_v3_business_search\u0026utm_source=ws8vr28tdg6FPV5bVAOu_g","image_url":"https://s3-media3.fl.yelpcdn.com/bphoto/ZRhFMBTlVsj5FY0tR100Yw/o.jpg","rating":5,"review_count":124}
{"_id":{"$oid":"580a7453d55632e672deecf0"},"name":"Young Attitudes","addresses":[{"street1":"8843 Villa La Jolla Dr","street2":"Ste 206","street3":"","city":"La Jolla","state":"CA","country":"US","coordinates":{"longitude":-117.2333572,"latitude":32.8682539},"_id":{"$oid":"580a7b371b17a03796f3c76a"}}],"phone":"+18584573334","website":"https://www.yelp.com/biz/young-attitudes-la-jolla?adjust_creative=ws8vr28tdg6FPV5bVAOu_g\u0026utm_campaign=yelp_api_v3\u0026utm_medium=api_v3_business_search\u0026utm_source=ws8vr28tdg6FPV5bVAOu_g","image_url":"https://s3-media1.fl.yelpcdn.com/bphoto/lhoOW3x-0DZ_wmGJhl2ipw/o.jpg","rating":4.5,"review_count":178}
{"_id":{"$oid":"580a7453d55632e672deecf1"},"name":"Jax \u0026 King","addresses":[{"street1":"7410 La Jolla Blvd","street2":null,"street3":"","city":"La Jolla","state":"CA","country":"US","coordinates":{"longitude":-117.278335,"latitude":32.837802},"_id":{"$oid":"580a7b371b17a03796f3c76a"}}],"phone":"+18584595464","website":"https://www.yelp.com/biz/jax-and-king-la-jolla?adjust_creative=ws8vr28tdg6FPV5bVAOu_g\u0026utm_campaign=yelp_api_v3\u0026utm_medium=api_v3_business_search\u0026utm_source=ws8vr28tdg6FPV5bVAOu_g","image_url":"https://s3-media3.fl.yelpcdn.com/bphoto/nKFKs36Fo6KiqUBqR8Idsw/o.jpg","rating":5,"review_count":141}
{"_id":{"$oid":"580a7453d55632e672deecf2"},"name":"Salon Spruce","addresses":[{"street1":"7527 Girard Ave","street2":"","street3":"","city":"La Jolla","state":"CA","country":"US","coordinates":{"latitude":32.842971846293,"longitude":-117.27323393936,"_id":{"$oid":"580e4a84555c86317bc0b11e"}},"_id":{"$oid":"580a7b371b17a03796f3c76a"},"zip":""}],"phone":"+18588880087","website":"https://www.yelp.com/biz/salon-spruce-la-jolla-2?adjust_creative=ws8vr28tdg6FPV5bVAOu_g\u0026utm_campaign=yelp_api_v3\u0026utm_medium=api_v3_business_search\u0026utm_source=ws8vr28tdg6FPV5bVAOu_g","image_url":"https://s3-media4.fl.yelpcdn.com/bphoto/rhzAf3yO1cQKAch_eNAmuQ/o.jpg","rating":5,"review_count":293,"enabled":true}
{"_id":{"$oid":"580a7453d55632e672deecf3"},"name":"Evian Salon \u0026 Spa","addresses":[{"street1":"4130 La Jolla Village Dr","street2":"Ste 100","street3":"","city":"La Jolla","state":"CA","country":"US","coordinates":{"longitude":-117.2179946,"latitude":32.8719516},"_id":{"$oid":"580a7b371b17a03796f3c76a"}}],"phone":"+18582241500","website":"https://www.yelp.com/biz/evian-salon-and-spa-la-jolla-3?adjust_creative=ws8vr28tdg6FPV5bVAOu_g\u0026utm_campaign=yelp_api_v3\u0026utm_medium=api_v3_business_search\u0026utm_source=ws8vr28tdg6FPV5bVAOu_g","image_url":"https://s3-media4.fl.yelpcdn.com/bphoto/4_Ha7-KS2YfU4RetOrpUFQ/o.jpg","rating":4.5,"review_count":160}
{"_id":{"$oid":"580a7453d55632e672deecf4"},"name":"Sweet Salon","addresses":[{"street1":"1855 Bacon St","street2":"","street3":"","city":"San Diego","state":"CA","country":"US","coordinates":{"longitude":-117.25158423185,"latitude":32.746169194579},"_id":{"$oid":"580a7b371b17a03796f3c76a"}}],"phone":"+16197581823","website":"https://www.yelp.com/biz/sweet-salon-san-diego?adjust_creative=ws8vr28tdg6FPV5bVAOu_g\u0026utm_campaign=yelp_api_v3\u0026utm_medium=api_v3_business_search\u0026utm_source=ws8vr28tdg6FPV5bVAOu_g","image_url":"https://s3-media1.fl.yelpcdn.com/bphoto/Egh0Ck0PeFuaN7nvPQ2-jg/o.jpg","rating":5,"review_count":160}
{"_id":{"$oid":"580a7453d55632e672deecf5"},"name":"Salon Ink","addresses":[{"street1":"3957 Goldfinch St","street2":"","street3":"","city":"San Diego","state":"CA","country":"US","coordinates":{"longitude":-117.171254,"latitude":32.7491397},"_id":{"$oid":"580a7b371b17a03796f3c76a"}}],"phone":"+16197942042","website":"https://www.yelp.com/biz/salon-ink-san-diego-5?adjust_creative=ws8vr28tdg6FPV5bVAOu_g\u0026utm_campaign=yelp_api_v3\u0026utm_medium=api_v3_business_search\u0026utm_source=ws8vr28tdg6FPV5bVAOu_g","image_url":"https://s3-media4.fl.yelpcdn.com/bphoto/pV0wqV-ScaDDMwceYw8QzA/o.jpg","rating":4.5,"review_count":591,"enabled":true}
{"_id":{"$oid":"580a7453d55632e672deecf6"},"name":"PaperDoll Salon","addresses":[{"street1":"1263 Garnet Ave","street2":"","street3":"","city":"San Diego","state":"CA","country":"US","coordinates":{"longitude":-117.2467459,"latitude":32.7984698},"_id":{"$oid":"580a7b371b17a03796f3c76a"}}],"phone":"+18585812393","website":"https://www.yelp.com/biz/paperdoll-salon-san-diego?adjust_creative=ws8vr28tdg6FPV5bVAOu_g\u0026utm_campaign=yelp_api_v3\u0026utm_medium=api_v3_business_search\u0026utm_source=ws8vr28tdg6FPV5bVAOu_g","image_url":"https://s3-media2.fl.yelpcdn.com/bphoto/Aioxjvzq7fuzK4aRB3hBzw/o.jpg","rating":4.5,"review_count":322}
{"_id":{"$oid":"580a7453d55632e672deecf7"},"name":"Walkin Salon By Robert Cromeans","addresses":[{"street1":"969 Garnet Ave","street2":"","street3":"","city":"San Diego","state":"CA","country":"US","coordinates":{"longitude":-117.25211,"latitude":32.79696},"_id":{"$oid":"580a7b371b17a03796f3c76a"}}],"phone":"+18582709975","website":"https://www.yelp.com/biz/walkin-salon-by-robert-cromeans-san-diego-4?adjust_creative=ws8vr28tdg6FPV5bVAOu_g\u0026utm_campaign=yelp_api_v3\u0026utm_medium=api_v3_business_search\u0026utm_source=ws8vr28tdg6FPV5bVAOu_g","image_url":"https://s3-media2.fl.yelpcdn.com/bphoto/dN4yGl83g4uAE8ttNphp2g/o.jpg","rating":4,"review_count":410}
{"_id":{"$oid":"580a7453d55632e672deecf8"},"name":"Salon Santo Tomas","addresses":[{"street1":"2802 Juan St","street2":"Ste 16","street3":"","city":"San Diego","state":"CA","country":"US","coordinates":{"longitude":-117.19716644287,"latitude":32.756061553955},"_id":{"$oid":"580a7b371b17a03796f3c76a"}}],"phone":"+16192991227","website":"https://www.yelp.com/biz/salon-santo-tomas-san-diego?adjust_creative=ws8vr28tdg6FPV5bVAOu_g\u0026utm_campaign=yelp_api_v3\u0026utm_medium=api_v3_business_search\u0026utm_source=ws8vr28tdg6FPV5bVAOu_g","image_url":"https://s3-media2.fl.yelpcdn.com/bphoto/tDJtQIsuYctykQqonhd_sQ/o.jpg","rating":5,"review_count":163}
{"_id":{"$oid":"580a7453d55632e672deecf9"},"name":"Salon on 30th","addresses":[{"street1":"2225 30th St","street2":"","street3":"","city":"San Diego","state":"CA","country":"US","coordinates":{"longitude":-117.12986,"latitude":32.72918},"_id":{"$oid":"580a7b371b17a03796f3c76a"}}],"phone":"+16192841687","website":"https://www.yelp.com/biz/salon-on-30th-san-diego?adjust_creative=ws8vr28tdg6FPV5bVAOu_g\u0026utm_campaign=yelp_api_v3\u0026utm_medium=api_v3_business_search\u0026utm_source=ws8vr28tdg6FPV5bVAOu_g","image_url":"https://s3-media2.fl.yelpcdn.com/bphoto/zOW35I7bhM2fRFLhc0BKrA/o.jpg","rating":5,"review_count":454}
{"_id":{"$oid":"580a7453d55632e672deecfa"},"name":"Sax Hair","addresses":[{"street1":"915 Camino Del Mar","street2":"Ste 200","street3":"","city":"Delmar","state":"CA","country":"US","coordinates":{"longitude":-117.26279,"latitude":32.9537199},"_id":{"$oid":"580a7b371b17a03796f3c76a"}}],"phone":"+18582546254","website":"https://www.yelp.com/biz/sax-hair-delmar?adjust_creative=ws8vr28tdg6FPV5bVAOu_g\u0026utm_campaign=yelp_api_v3\u0026utm_medium=api_v3_business_search\u0026utm_source=ws8vr28tdg6FPV5bVAOu_g","image_url":"https://s3-media1.fl.yelpcdn.com/bphoto/SrbK6jJZLHUA-nGyuEYmWg/o.jpg","rating":5,"review_count":178}
{"_id":{"$oid":"580a7453d55632e672deecfb"},"name":"Buju Tattoo","addresses":[{"street1":"914 W  Washington St","street2":"","street3":"","city":"San Diego","state":"CA","country":"US","coordinates":{"longitude":-117.1718176,"latitude":32.7500208},"_id":{"$oid":"580a7b371b17a03796f3c76a"}}],"phone":"+16198666856","website":"https://www.yelp.com/biz/buju-tattoo-san-diego?adjust_creative=ws8vr28tdg6FPV5bVAOu_g\u0026utm_campaign=yelp_api_v3\u0026utm_medium=api_v3_business_search\u0026utm_source=ws8vr28tdg6FPV5bVAOu_g","image_url":"https://s3-media3.fl.yelpcdn.com/bphoto/YXHECEd0gtteOVs9zumnuA/o.jpg","rating":5,"review_count":167}
{"_id":{"$oid":"580a7453d55632e672deecfc"},"name":"Guru Tattoo","addresses":[{"street1":"1122 Garnet Ave","street2":"","street3":"","city":"San Diego","state":"CA","country":"US","coordinates":{"longitude":-117.24952,"latitude":32.79817},"_id":{"$oid":"580a7b371b17a03796f3c76a"}}],"phone":"+18582701070","website":"https://www.yelp.com/biz/guru-tattoo-san-diego?adjust_creative=ws8vr28tdg6FPV5bVAOu_g\u0026utm_campaign=yelp_api_v3\u0026utm_medium=api_v3_business_search\u0026utm_source=ws8vr28tdg6FPV5bVAOu_g","image_url":"https://s3-media1.fl.yelpcdn.com/bphoto/1BcC2_pp2OX5kqcyLI50vQ/o.jpg","rating":4.5,"review_count":172}
{"_id":{"$oid":"580a7453d55632e672deecfd"},"name":"Funhouse Tattoos","addresses":[{"street1":"1453 Garnet Ave","street2":"","street3":"","city":"San Diego","state":"CA","country":"US","coordinates":{"longitude":-117.24333,"latitude":32.79895},"_id":{"$oid":"580a7b371b17a03796f3c76a"}}],"phone":"+18584837828","website":"https://www.yelp.com/biz/funhouse-tattoos-san-diego-3?adjust_creative=ws8vr28tdg6FPV5bVAOu_g\u0026utm_campaign=yelp_api_v3\u0026utm_medium=api_v3_business_search\u0026utm_source=ws8vr28tdg6FPV5bVAOu_g","image_url":"https://s3-media2.fl.yelpcdn.com/bphoto/ZMzFY23yt8D8YqRXqCcAig/o.jpg","rating":5,"review_count":132}
{"_id":{"$oid":"580a7453d55632e672deecfe"},"name":"OB Waves Salon","addresses":[{"street1":"4989 Voltaire St","street2":null,"street3":"","city":"San Diego","state":"CA","country":"US","coordinates":{"longitude":-117.24658,"latitude":32.75171},"_id":{"$oid":"580a7b371b17a03796f3c76a"}}],"phone":"+16195468999","website":"https://www.yelp.com/biz/ob-waves-salon-san-diego?adjust_creative=ws8vr28tdg6FPV5bVAOu_g\u0026utm_campaign=yelp_api_v3\u0026utm_medium=api_v3_business_search\u0026utm_source=ws8vr28tdg6FPV5bVAOu_g","image_url":"https://s3-media2.fl.yelpcdn.com/bphoto/NNiE-1wCTRlZ1OwcYRUSJA/o.jpg","rating":5,"review_count":80}
{"_id":{"$oid":"580a7453d55632e672deecff"},"name":"Avalon Tattoo II","addresses":[{"street1":"3039 Adams Ave","street2":"2nd Fl","street3":"","city":"San Diego","state":"CA","country":"US","coordinates":{"longitude":-117.12915039062,"latitude":32.762733459473},"_id":{"$oid":"580a7b371b17a03796f3c76a"}}],"phone":"+16192801957","website":"https://www.yelp.com/biz/avalon-tattoo-ii-san-diego?adjust_creative=ws8vr28tdg6FPV5bVAOu_g\u0026utm_campaign=yelp_api_v3\u0026utm_medium=api_v3_business_search\u0026utm_source=ws8vr28tdg6FPV5bVAOu_g","image_url":"https://s3-media1.fl.yelpcdn.com/bphoto/FNAV2_um2ztnPdJLoaF4xQ/o.jpg","rating":4.5,"review_count":154}
{"_id":{"$oid":"580a7453d55632e672deed00"},"name":"Hung Tattoo Parlor","addresses":[{"street1":"4776 El Cajon Blvd","street2":"Ste 202","street3":"","city":"San Diego","state":"CA","country":"US","coordinates":{"longitude":-117.0915145874,"latitude":32.756450653076},"_id":{"$oid":"580a7b371b17a03796f3c76a"}}],"phone":"+16195820528","website":"https://www.yelp.com/biz/hung-tattoo-parlor-san-diego?adjust_creative=ws8vr28tdg6FPV5bVAOu_g\u0026utm_campaign=yelp_api_v3\u0026utm_medium=api_v3_business_search\u0026utm_source=ws8vr28tdg6FPV5bVAOu_g","image_url":"https://s3-media4.fl.yelpcdn.com/bphoto/aJu4jPoqRtkiwf1BbtDLyA/o.jpg","rating":5,"review_count":80}
{"_id":{"$oid":"580a7453d55632e672deed01"},"name":"Propaganda Tattoo","addresses":[{"street1":"3704 Voltaire St","street2":"Ste 102","street3":"","city":"San Diego","state":"CA","country":"US","coordinates":{"longitude":-117.22903,"latitude":32.74049},"_id":{"$oid":"580a7b371b17a03796f3c76a"}}],"phone":"+16192266192","website":"https://www.yelp.com/biz/propaganda-tattoo-san-diego?adjust_creative=ws8vr28tdg6FPV5bVAOu_g\u0026utm_campaign=yelp_api_v3\u0026utm_medium=api_v3_business_search\u0026utm_source=ws8vr28tdg6FPV5bVAOu_g","image_url":"https://s3-media1.fl.yelpcdn.com/bphoto/fID2a_B-tsymtpMvw-kZOQ/o.jpg","rating":5,"review_count":94}
{"_id":{"$oid":"580a7453d55632e672deed02"},"name":"Chronic Tattoo","addresses":[{"street1":"1253 Garnet Ave","street2":"# B","street3":"","city":"San Diego","state":"CA","country":"US","coordinates":{"longitude":-117.24690246582,"latitude":32.798168182373},"_id":{"$oid":"580a7b371b17a03796f3c76a"}}],"phone":"+18582749140","website":"https://www.yelp.com/biz/chronic-tattoo-san-diego?adjust_creative=ws8vr28tdg6FPV5bVAOu_g\u0026utm_campaign=yelp_api_v3\u0026utm_medium=api_v3_business_search\u0026utm_source=ws8vr28tdg6FPV5bVAOu_g","image_url":"https://s3-media2.fl.yelpcdn.com/bphoto/FD3TyiNyhmAQmzPulpYIDg/o.jpg","rating":4.5,"review_count":166}
{"_id":{"$oid":"580a7453d55632e672deed03"},"name":"Vivid Tattoo","addresses":[{"street1":"449 University Ave","street2":"Ste 24","street3":"","city":"San Diego","state":"CA","country":"US","coordinates":{"longitude":-117.1606909,"latitude":32.7481351},"_id":{"$oid":"580a7b371b17a03796f3c76a"}}],"phone":"+16194870237","website":"https://www.yelp.com/biz/vivid-tattoo-san-diego?adjust_creative=ws8vr28tdg6FPV5bVAOu_g\u0026utm_campaign=yelp_api_v3\u0026utm_medium=api_v3_business_search\u0026utm_source=ws8vr28tdg6FPV5bVAOu_g","image_url":"https://s3-media1.fl.yelpcdn.com/bphoto/QXH29EJHCIFxlPZntn4x3w/o.jpg","rating":4.5,"review_count":122}
{"_id":{"$oid":"580a7453d55632e672deed04"},"name":"Sideshow Tattoo and Piercing","addresses":[{"street1":"1062 Garnet Ave","street2":null,"street3":"","city":"San Diego","state":"CA","country":"US","coordinates":{"longitude":-117.25056457519,"latitude":32.797946929932},"_id":{"$oid":"580a7b371b17a03796f3c76a"}}],"phone":"+18582748282","website":"https://www.yelp.com/biz/sideshow-tattoo-and-piercing-san-diego?adjust_creative=ws8vr28tdg6FPV5bVAOu_g\u0026utm_campaign=yelp_api_v3\u0026utm_medium=api_v3_business_search\u0026utm_source=ws8vr28tdg6FPV5bVAOu_g","image_url":"https://s3-media3.fl.yelpcdn.com/bphoto/_Xwz_CKRDbv6S9C0MjXM0g/o.jpg","rating":5,"review_count":107}
{"_id":{"$oid":"580a7453d55632e672deed05"},"name":"Flying Panther Tattoo","addresses":[{"street1":"2323 Broadway","street2":"Ste 101","street3":"","city":"San Diego","state":"CA","country":"US","coordinates":{"longitude":-117.14282989502,"latitude":32.715545654297},"_id":{"$oid":"580a7b371b17a03796f3c76a"}}],"phone":"+16192385713","website":"https://www.yelp.com/biz/flying-panther-tattoo-san-diego?adjust_creative=ws8vr28tdg6FPV5bVAOu_g\u0026utm_campaign=yelp_api_v3\u0026utm_medium=api_v3_business_search\u0026utm_source=ws8vr28tdg6FPV5bVAOu_g","image_url":"https://s3-media1.fl.yelpcdn.com/bphoto/x6ixmfd-YqPeqr4Y2o1BDg/o.jpg","rating":5,"review_count":108}
{"_id":{"$oid":"580a7453d55632e672deed06"},"name":"Absolute Tattoo \u0026 Piercing","addresses":[{"street1":"8055 Clairemont Mesa Blvd","street2":"Ste 106","street3":"","city":"San Diego","state":"CA","country":"US","coordinates":{"longitude":-117.14978,"latitude":32.83231},"_id":{"$oid":"580a7b371b17a03796f3c76a"}}],"phone":"+18587158288","website":"https://www.yelp.com/biz/absolute-tattoo-and-piercing-san-diego?adjust_creative=ws8vr28tdg6FPV5bVAOu_g\u0026utm_campaign=yelp_api_v3\u0026utm_medium=api_v3_business_search\u0026utm_source=ws8vr28tdg6FPV5bVAOu_g","image_url":"https://s3-media3.fl.yelpcdn.com/bphoto/dWiapN7SOyvGHKHn3bQ-4Q/o.jpg","rating":4.5,"review_count":115}
{"_id":{"$oid":"580a7453d55632e672deed07"},"name":"SD Tattoo","addresses":[{"street1":"3780 Hancock St","street2":"Ste E","street3":"","city":"San Diego","state":"CA","country":"US","coordinates":{"longitude":-117.21476219594,"latitude":32.757959514856},"_id":{"$oid":"580a7b371b17a03796f3c76a"}}],"phone":"+16194942610","website":"https://www.yelp.com/biz/sd-tattoo-san-diego-2?adjust_creative=ws8vr28tdg6FPV5bVAOu_g\u0026utm_campaign=yelp_api_v3\u0026utm_medium=api_v3_business_search\u0026utm_source=ws8vr28tdg6FPV5bVAOu_g","image_url":"https://s3-media4.fl.yelpcdn.com/bphoto/CdUECUDGFNLkiPG7B5JVnQ/o.jpg","rating":5,"review_count":80}
{"_id":{"$oid":"580a7453d55632e672deed08"},"name":"Propaganda Tattoo","addresses":[{"street1":"6166 El Cajon Blvd","street2":null,"street3":"","city":"San Diego","state":"CA","country":"US","coordinates":{"longitude":-117.06482,"latitude":32.76319},"_id":{"$oid":"580a7b371b17a03796f3c76a"}}],"phone":"+16192690069","website":"https://www.yelp.com/biz/propaganda-tattoo-san-diego-2?adjust_creative=ws8vr28tdg6FPV5bVAOu_g\u0026utm_campaign=yelp_api_v3\u0026utm_medium=api_v3_business_search\u0026utm_source=ws8vr28tdg6FPV5bVAOu_g","image_url":"https://s3-media2.fl.yelpcdn.com/bphoto/W_HOlHolFXGLYAx1DfYh4w/o.jpg","rating":4.5,"review_count":92}
{"_id":{"$oid":"580a7453d55632e672deed09"},"name":"Enigma Professional Piercing Studio","addresses":[{"street1":"1972 Garnet Ave","street2":null,"street3":"","city":"San Diego","state":"CA","country":"US","coordinates":{"longitude":-117.23389531868,"latitude":32.801546893613},"_id":{"$oid":"580a7b371b17a03796f3c76a"}}],"phone":"+18582749950","website":"https://www.yelp.com/biz/enigma-professional-piercing-studio-san-diego-2?adjust_creative=ws8vr28tdg6FPV5bVAOu_g\u0026utm_campaign=yelp_api_v3\u0026utm_medium=api_v3_business_search\u0026utm_source=ws8vr28tdg6FPV5bVAOu_g","image_url":"https://s3-media2.fl.yelpcdn.com/bphoto/rotSNT2p7KfvFTI1aHbMKA/o.jpg","rating":4.5,"review_count":466}
{"_id":{"$oid":"580a7453d55632e672deed0a"},"name":"Bearcat Tattoo Gallery","addresses":[{"street1":"2419 Kettner Blvd","street2":"","street3":"","city":"San Diego","state":"CA","country":"US","coordinates":{"longitude":-117.17141,"latitude":32.729441},"_id":{"$oid":"580a7b371b17a03796f3c76a"}}],"phone":"+16192692979","website":"https://www.yelp.com/biz/bearcat-tattoo-gallery-san-diego?adjust_creative=ws8vr28tdg6FPV5bVAOu_g\u0026utm_campaign=yelp_api_v3\u0026utm_medium=api_v3_business_search\u0026utm_source=ws8vr28tdg6FPV5bVAOu_g","image_url":"https://s3-media4.fl.yelpcdn.com/bphoto/HvHEAyHxu7v6UO2T5o6ciw/o.jpg","rating":5,"review_count":54}
{"_id":{"$oid":"580a7453d55632e672deed0b"},"name":"LaserAway","addresses":[{"street1":"3739 6th Ave","street2":"","street3":null,"city":"San Diego","state":"CA","country":"US","coordinates":{"longitude":-117.159198,"latitude":32.745948},"_id":{"$oid":"580a7b371b17a03796f3c76a"}}],"phone":"+16192952929","website":"https://www.yelp.com/biz/laseraway-san-diego-10?adjust_creative=ws8vr28tdg6FPV5bVAOu_g\u0026utm_campaign=yelp_api_v3\u0026utm_medium=api_v3_business_search\u0026utm_source=ws8vr28tdg6FPV5bVAOu_g","image_url":"https://s3-media4.fl.yelpcdn.com/bphoto/Cruoow2HaUWGiRjldtlszQ/o.jpg","rating":4,"review_count":229}
{"_id":{"$oid":"580a7453d55632e672deed0c"},"name":"Mike's Taco Club","addresses":[{"street1":"5060 Newport Ave","street2":"","street3":"","city":"San Diego","state":"CA","country":"US","coordinates":{"longitude":-117.25197851658,"latitude":32.747484147549},"_id":{"$oid":"580a7b371b17a03796f3c76a"}}],"phone":null,"website":"https://www.yelp.com/biz/mikes-taco-club-san-diego?adjust_creative=ws8vr28tdg6FPV5bVAOu_g\u0026utm_campaign=yelp_api_v3\u0026utm_medium=api_v3_business_search\u0026utm_source=ws8vr28tdg6FPV5bVAOu_g","image_url":"https://s3-media2.fl.yelpcdn.com/bphoto/RIYr-xjyguDSuezbZhWoVA/o.jpg","rating":4.5,"review_count":323}
{"_id":{"$oid":"580a7453d55632e672deed0d"},"name":"Full Circle Tattoo","addresses":[{"street1":"2312 30th St","street2":"","street3":"","city":"San Diego","state":"CA","country":"US","coordinates":{"longitude":-117.1297249,"latitude":32.7299667},"_id":{"$oid":"580a7b371b17a03796f3c76a"}}],"phone":"+16192266575","website":"https://www.yelp.com/biz/full-circle-tattoo-san-diego?adjust_creative=ws8vr28tdg6FPV5bVAOu_g\u0026utm_campaign=yelp_api_v3\u0026utm_medium=api_v3_business_search\u0026utm_source=ws8vr28tdg6FPV5bVAOu_g","image_url":"https://s3-media2.fl.yelpcdn.com/bphoto/jI3_g5KKahlvyBqv7vOT3g/o.jpg","rating":4.5,"review_count":285}
{"_id":{"$oid":"580a7453d55632e672deed0e"},"name":"Tanglez","addresses":[{"street1":"5010 Cass St","street2":"","street3":"","city":"San Diego","state":"CA","country":"US","coordinates":{"longitude":-117.254913,"latitude":32.806034},"_id":{"$oid":"580a7b371b17a03796f3c76a"}}],"phone":"+18582707313","website":"https://www.yelp.com/biz/tanglez-san-diego-2?adjust_creative=ws8vr28tdg6FPV5bVAOu_g\u0026utm_campaign=yelp_api_v3\u0026utm_medium=api_v3_business_search\u0026utm_source=ws8vr28tdg6FPV5bVAOu_g","image_url":"https://s3-media3.fl.yelpcdn.com/bphoto/itOphU40g4u08LVaGNSW-w/o.jpg","rating":4.5,"review_count":128}
{"_id":{"$oid":"580a7453d55632e672deed0f"},"name":"Creative Entertainment","addresses":[{"street1":null,"street2":null,"street3":"","city":"San Diego","state":"CA","country":"US","coordinates":{"longitude":-117.16438293457,"latitude":32.71826594948},"_id":{"$oid":"580a7b371b17a03796f3c76a"}}],"phone":"+16197013966","website":"https://www.yelp.com/biz/creative-entertainment-san-diego?adjust_creative=ws8vr28tdg6FPV5bVAOu_g\u0026utm_campaign=yelp_api_v3\u0026utm_medium=api_v3_business_search\u0026utm_source=ws8vr28tdg6FPV5bVAOu_g","image_url":"https://s3-media2.fl.yelpcdn.com/bphoto/41FQNHvDGHUT28MzT1yieA/o.jpg","rating":5,"review_count":43}
{"_id":{"$oid":"580a7453d55632e672deed10"},"name":"Malihini Sportfishing","addresses":[{"street1":"2803 Emerson St","street2":null,"street3":"","city":"San Diego","state":"CA","country":"US","coordinates":{"longitude":-117.22696685791,"latitude":32.722942352295},"_id":{"$oid":"580a7b371b17a03796f3c76a"}}],"phone":"+16199855179","website":"https://www.yelp.com/biz/malihini-sportfishing-san-diego?adjust_creative=ws8vr28tdg6FPV5bVAOu_g\u0026utm_campaign=yelp_api_v3\u0026utm_medium=api_v3_business_search\u0026utm_source=ws8vr28tdg6FPV5bVAOu_g","image_url":"https://s3-media4.fl.yelpcdn.com/bphoto/QVgsKEpIA7Fv3l5HWQDarg/o.jpg","rating":3,"review_count":15}
